<?xml version="1.0" encoding="utf-8"?>
<ArrayOfCustomer xmlns:xsi="http://www.w3.org/2001/XMLSchema-instance" xmlns:xsd="http://www.w3.org/2001/XMLSchema">
  <Customer>
    <Id>160739554</Id>
    <Name>ELHANAN</Name>
    <Phone>0558867934</Phone>
    <Longitude>35</Longitude>
    <Lattitude>31.05</Lattitude>
  </Customer>
  <Customer>
    <Id>212372312</Id>
    <Name>NATHAN</Name>
    <Phone>0553835038</Phone>
    <Longitude>35.04</Longitude>
    <Lattitude>31.03</Lattitude>
  </Customer>
  <Customer>
    <Id>328939608</Id>
    <Name>SHIRA</Name>
    <Phone>0533832530</Phone>
    <Longitude>35.01</Longitude>
    <Lattitude>31.03</Lattitude>
  </Customer>
  <Customer>
    <Id>212694491</Id>
    <Name>MICHAL</Name>
    <Phone>0535212517</Phone>
    <Longitude>35.02</Longitude>
    <Lattitude>31.02</Lattitude>
  </Customer>
  <Customer>
    <Id>321544821</Id>
    <Name>OSHER</Name>
    <Phone>0545912517</Phone>
    <Longitude>35.09</Longitude>
    <Lattitude>31.07</Lattitude>
  </Customer>
  <Customer>
    <Id>326273681</Id>
    <Name>DANIEL</Name>
    <Phone>0536812038</Phone>
    <Longitude>35.01</Longitude>
    <Lattitude>31.02</Lattitude>
  </Customer>
  <Customer>
    <Id>331288613</Id>
    <Name>ESTER</Name>
    <Phone>0507911411</Phone>
    <Longitude>35.07</Longitude>
    <Lattitude>31.04</Lattitude>
  </Customer>
</ArrayOfCustomer>